{
"type": "FeatureCollection",
"name": "cities",
"crs": { "type": "name", "properties": { "name": "urn:ogc:def:crs:OGC:1.3:CRS84" } },
"features": [
{ "type": "Feature", "properties": { "ONOMA": "Αθήνα", "NAME": "Athens" }, "geometry": { "type": "Point", "coordinates": [ 23.726247807017874, 37.975210527592459 ] } },
{ "type": "Feature", "properties": { "ONOMA": "Μεσολόγγι", "NAME": "Mesologgi" }, "geometry": { "type": "Point", "coordinates": [ 21.429230256804757, 38.369122185664011 ] } },
{ "type": "Feature", "properties": { "ONOMA": "Χαλκίδα", "NAME": "Halkida" }, "geometry": { "type": "Point", "coordinates": [ 23.601593023488512, 38.465348703727116 ] } },
{ "type": "Feature", "properties": { "ONOMA": "Καρπενήσι", "NAME": "Karpenisi" }, "geometry": { "type": "Point", "coordinates": [ 21.794596657123442, 38.917253518953451 ] } },
{ "type": "Feature", "properties": { "ONOMA": "Λαμία", "NAME": "Lamia" }, "geometry": { "type": "Point", "coordinates": [ 22.429473128604009, 38.904024022802282 ] } },
{ "type": "Feature", "properties": { "ONOMA": "Άμφισσα", "NAME": "Amfissa" }, "geometry": { "type": "Point", "coordinates": [ 22.377853553635653, 38.528886073459375 ] } },
{ "type": "Feature", "properties": { "ONOMA": "Τρίπολη", "NAME": "Tripoli" }, "geometry": { "type": "Point", "coordinates": [ 22.37309765920855, 37.509795083637123 ] } },
{ "type": "Feature", "properties": { "ONOMA": "Πάτρα", "NAME": "Patra" }, "geometry": { "type": "Point", "coordinates": [ 21.736220633220785, 38.248962461924741 ] } },
{ "type": "Feature", "properties": { "ONOMA": "Πύργος", "NAME": "Pyrgos" }, "geometry": { "type": "Point", "coordinates": [ 21.442708340508162, 37.672543481897321 ] } },
{ "type": "Feature", "properties": { "ONOMA": "Κόρινθος", "NAME": "Korinthos" }, "geometry": { "type": "Point", "coordinates": [ 22.929678443624407, 37.93909788620271 ] } },
{ "type": "Feature", "properties": { "ONOMA": "Σπάρτη", "NAME": "Sparti" }, "geometry": { "type": "Point", "coordinates": [ 22.432810599871967, 37.074299423193978 ] } },
{ "type": "Feature", "properties": { "ONOMA": "Καλαμάτα", "NAME": "Kalamata" }, "geometry": { "type": "Point", "coordinates": [ 22.112980465320518, 37.041295614461504 ] } },
{ "type": "Feature", "properties": { "ONOMA": "Ζάκυνθος", "NAME": "Zakynthos" }, "geometry": { "type": "Point", "coordinates": [ 20.897505931677596, 37.788169099546415 ] } },
{ "type": "Feature", "properties": { "ONOMA": "Κέρκυρα", "NAME": "Kerkyra" }, "geometry": { "type": "Point", "coordinates": [ 19.919799905446535, 39.619310725833792 ] } },
{ "type": "Feature", "properties": { "ONOMA": "Αργοστόλι", "NAME": "Argostoli" }, "geometry": { "type": "Point", "coordinates": [ 20.485828973166061, 38.178135873883733 ] } },
{ "type": "Feature", "properties": { "ONOMA": "Λευκάδα", "NAME": "Leykada" }, "geometry": { "type": "Point", "coordinates": [ 20.707584373186606, 38.833601658895731 ] } },
{ "type": "Feature", "properties": { "ONOMA": "Άρτα", "NAME": "Arta" }, "geometry": { "type": "Point", "coordinates": [ 20.985991894917806, 39.160761106125534 ] } },
{ "type": "Feature", "properties": { "ONOMA": "Πρέβεζα", "NAME": "Prebeza" }, "geometry": { "type": "Point", "coordinates": [ 20.753369865280224, 38.960713451744994 ] } },
{ "type": "Feature", "properties": { "ONOMA": "Καρδίτσα", "NAME": "Karditsa" }, "geometry": { "type": "Point", "coordinates": [ 21.920872357458098, 39.366794224020623 ] } },
{ "type": "Feature", "properties": { "ONOMA": "Λάρισα", "NAME": "Larissa" }, "geometry": { "type": "Point", "coordinates": [ 22.420773619150967, 39.638129398850303 ] } },
{ "type": "Feature", "properties": { "ONOMA": "Βόλος", "NAME": "Bolos" }, "geometry": { "type": "Point", "coordinates": [ 22.934181911197232, 39.363987373445688 ] } },
{ "type": "Feature", "properties": { "ONOMA": "Τρίκαλα", "NAME": "Trikala" }, "geometry": { "type": "Point", "coordinates": [ 21.775763681041692, 39.555458029257721 ] } },
{ "type": "Feature", "properties": { "ONOMA": "Γρεβενά", "NAME": "Grebena" }, "geometry": { "type": "Point", "coordinates": [ 21.426422756329302, 40.083602880660635 ] } },
{ "type": "Feature", "properties": { "ONOMA": "Δράμα", "NAME": "Drama" }, "geometry": { "type": "Point", "coordinates": [ 24.152508201268198, 41.150457707288417 ] } },
{ "type": "Feature", "properties": { "ONOMA": "Βέροια", "NAME": "Beroia" }, "geometry": { "type": "Point", "coordinates": [ 22.201750332494846, 40.524307347775306 ] } },
{ "type": "Feature", "properties": { "ONOMA": "Θεσσαλονίκη", "NAME": "Thessaloniki" }, "geometry": { "type": "Point", "coordinates": [ 22.95004010432314, 40.637958699346044 ] } },
{ "type": "Feature", "properties": { "ONOMA": "Καβάλα", "NAME": "Kabala" }, "geometry": { "type": "Point", "coordinates": [ 24.41579319215916, 40.938866313813726 ] } },
{ "type": "Feature", "properties": { "ONOMA": "Καστοριά", "NAME": "Kastoria" }, "geometry": { "type": "Point", "coordinates": [ 21.268399692423298, 40.519236837027265 ] } },
{ "type": "Feature", "properties": { "ONOMA": "Κιλκίς", "NAME": "Kilkis" }, "geometry": { "type": "Point", "coordinates": [ 22.876529269007161, 40.993784723753805 ] } },
{ "type": "Feature", "properties": { "ONOMA": "Κοζάνη", "NAME": "Kozani" }, "geometry": { "type": "Point", "coordinates": [ 21.788851656097311, 40.30171496219446 ] } },
{ "type": "Feature", "properties": { "ONOMA": "Έδεσσα", "NAME": "Edessa" }, "geometry": { "type": "Point", "coordinates": [ 22.046070387055018, 40.799627878598798 ] } },
{ "type": "Feature", "properties": { "ONOMA": "Κατερίνη", "NAME": "Katerini" }, "geometry": { "type": "Point", "coordinates": [ 22.503720945648517, 40.271907994941124 ] } },
{ "type": "Feature", "properties": { "ONOMA": "Σέρρες", "NAME": "Serres" }, "geometry": { "type": "Point", "coordinates": [ 23.549800370976676, 41.090235535542902 ] } },
{ "type": "Feature", "properties": { "ONOMA": "Φλώρινα", "NAME": "Florina" }, "geometry": { "type": "Point", "coordinates": [ 21.405523016188898, 40.780143125613378 ] } },
{ "type": "Feature", "properties": { "ONOMA": "Πολύγυρος", "NAME": "Polygyros" }, "geometry": { "type": "Point", "coordinates": [ 23.440219134217045, 40.377018618618834 ] } },
{ "type": "Feature", "properties": { "ONOMA": "Αλεξανδρούπολη", "NAME": "Aleksandroypoli" }, "geometry": { "type": "Point", "coordinates": [ 25.872396767969473, 40.848405896027558 ] } },
{ "type": "Feature", "properties": { "ONOMA": "Ξάνθη", "NAME": "Ksanthi" }, "geometry": { "type": "Point", "coordinates": [ 24.884252414262395, 41.13594113995115 ] } },
{ "type": "Feature", "properties": { "ONOMA": "Κομοτηνή", "NAME": "Komotini" }, "geometry": { "type": "Point", "coordinates": [ 25.405785901119895, 41.118885056686125 ] } },
{ "type": "Feature", "properties": { "ONOMA": "Ρόδος", "NAME": "Rodos" }, "geometry": { "type": "Point", "coordinates": [ 28.227254271721947, 36.443214948505478 ] } },
{ "type": "Feature", "properties": { "ONOMA": "Ερμούπολη", "NAME": "Ermoypoli" }, "geometry": { "type": "Point", "coordinates": [ 24.940125388382253, 37.442430034747595 ] } },
{ "type": "Feature", "properties": { "ONOMA": "Μυτιλήνη", "NAME": "Mytilini" }, "geometry": { "type": "Point", "coordinates": [ 26.555629295812217, 39.107892342393484 ] } },
{ "type": "Feature", "properties": { "ONOMA": "Σάμος", "NAME": "Samos" }, "geometry": { "type": "Point", "coordinates": [ 26.975155628809762, 37.759010704891104 ] } },
{ "type": "Feature", "properties": { "ONOMA": "Χίος", "NAME": "Xios" }, "geometry": { "type": "Point", "coordinates": [ 26.137369911810932, 38.363880066044914 ] } },
{ "type": "Feature", "properties": { "ONOMA": "Ηράκλειο", "NAME": "Heraclion" }, "geometry": { "type": "Point", "coordinates": [ 25.131309775605448, 35.338684997073194 ] } },
{ "type": "Feature", "properties": { "ONOMA": "Άγιος Νικόλαος", "NAME": "Agios Nikolaos" }, "geometry": { "type": "Point", "coordinates": [ 25.716137398247014, 35.18997124677729 ] } },
{ "type": "Feature", "properties": { "ONOMA": "Ρέθυμνο", "NAME": "Rethimno" }, "geometry": { "type": "Point", "coordinates": [ 24.474609551117009, 35.368068608497836 ] } },
{ "type": "Feature", "properties": { "ONOMA": "Χανιά", "NAME": "Hania" }, "geometry": { "type": "Point", "coordinates": [ 24.019036663073784, 35.516224600534379 ] } },
{ "type": "Feature", "properties": { "ONOMA": "Ιωάννινα", "NAME": "Ioannina" }, "geometry": { "type": "Point", "coordinates": [ 20.857298044323837, 39.668743418835369 ] } },
{ "type": "Feature", "properties": { "ONOMA": "Ηγουμενίτσα", "NAME": "Hgoymenitsa" }, "geometry": { "type": "Point", "coordinates": [ 20.267969570342956, 39.503967180209351 ] } },
{ "type": "Feature", "properties": { "ONOMA": "Λειβαδιά", "NAME": "Leivadia" }, "geometry": { "type": "Point", "coordinates": [ 22.877740551285417, 38.434958375299153 ] } },
{ "type": "Feature", "properties": { "ONOMA": "Ναύπλιο", "NAME": "Nayplion" }, "geometry": { "type": "Point", "coordinates": [ 22.808894735567886, 37.568180359988546 ] } }
]
}
